{
    "gyms": [
        {
            "enabled": true,
            "gym_id": "92ecdfa45a9c478db5767fa86aa92c60.16",
            "gym_name": "Bralju kapi - Main Monument",
            "gym_points": 207,
            "team_id": 3,
            "gym_inid": "5865391058422732bc3fb392",
            "longitude": 56.909942,
            "latitude": 24.102333,
            "location": [
                56.909942,
                24.102333
            ],
            "inside": [
                {
                    "trainer_name": "Zpaulis",
                    "pokemon_id": 317,
                    "cp": 1033
                }
            ],
            "url": "http: //lh3.googleusercontent.com/D5u7qBft6QnG8s-UwJexNTgMHY18cBJqXfSoJZ86esnlpyRrvzGmKIrquLyCv0G6fvCK8yY4VVs36VkuYxQ",
            "lastseen": "2018-01-13T11:35:54.796Z"
        },
        {
            "enabled": true,
            "gym_id": "907d42ed56ce47bb8e2f914251563fe4.16",
            "gym_name": "Food Sign",
            "gym_points": 2151,
            "team_id": 1,
            "gym_inid": "5865391058422732bc3fb38f",
            "longitude": 56.905284,
            "latitude": 24.102642,
            "location": [
                56.905284,
                24.102642
            ],
            "inside": [
                {
                    "trainer_name": "Rolmens",
                    "pokemon_id": 297,
                    "cp": 2493
                }
            ],
            "url": "http://lh6.ggpht.com/JNMLA6UjnuMhwlXiuazwso1sJbvuK0Hj_my6kyyxKOJLrfcVYY_5dZIaj2pwBLcBaSVTasHorsneZtuhSN64",
            "lastseen": "2018-01-13T12:25:31.399Z"
        },
        {
            "enabled": true,
            "gym_id": "3325fe42bb29410b81d0a39957e478e0.11",
            "gym_name": "Ebelmuizhas ozols",
            "gym_points": 1980,
            "team_id": 3,
            "gym_inid": "58653910cfb1ad32b7d60281",
            "longitude": 56.90515,
            "latitude": 24.099327,
            "location": [
                56.90515,
                24.099327
            ],
            "inside": [
                {
                    "trainer_name": "jurijsa",
                    "pokemon_id": 242,
                    "cp": 2953
                }
            ],
            "url": "http://lh3.ggpht.com/IxITjsyZGZHbv6BZh7U4x72yyFbl2Nhb4_Q2Lo-I3oP97e1KoIlrw-Y0DShRd8ldiEjSKDqhRNog1HSPruIJ",
            "lastseen": "2018-01-13T12:25:31.395Z"
        },
        {
            "enabled": true,
            "gym_id": "441c1bc533c64ff9b2e310c42cf6cf84.16",
            "gym_name": "Traktieris \"Russkij Kucher\"",
            "gym_points": 805,
            "team_id": 1,
            "gym_inid": "5865391058422732bc3fb391",
            "longitude": 56.913961,
            "latitude": 24.098731,
            "location": [
                56.913961,
                24.098731
            ],
            "inside": [
                {
                    "trainer_name": "Loraqirelle",
                    "pokemon_id": 315,
                    "cp": 854
                }
            ],
            "url": "http://lh4.ggpht.com/-V9GTxSgu0UVclPfCaQWdYc-tyDWWaXrDylYy5SMGVqx7it3_urK57kGvU9tfPxNu515Y0Jugjl-HShVW70xrg",
            "lastseen": "2018-01-13T11:36:56.548Z"
        },
        {
            "enabled": true,
            "gym_id": "623dfcd779d3406e8208c02701c26436.16",
            "gym_name": "Street Decor",
            "gym_points": 2001,
            "team_id": 1,
            "gym_inid": "5865391058422732bc3fb38d",
            "longitude": 56.903412,
            "latitude": 24.093904,
            "location": [
                56.903412,
                24.093904
            ],
            "inside": [
                {
                    "trainer_name": "Fewalt",
                    "pokemon_id": 80,
                    "cp": 2067
                }
            ],
            "url": "http://lh5.ggpht.com/l1-fJ7PcvFdhw6-luic7Wvq3yJaJzRp3xn5Eec9ggHCcXLF4RcA1Lin601SCmQclSutIhLjK-XKX5BxovYbL",
            "lastseen": "2018-01-13T12:25:31.393Z"
        },
        {
            "enabled": true,
            "gym_id": "8b4f1a8d3aa64debbe704e7e00e6486f.16",
            "gym_name": "Art On Wall",
            "gym_points": 2006,
            "team_id": 3,
            "gym_inid": "5865391058422732bc3fb38e",
            "longitude": 56.899993,
            "latitude": 24.098244,
            "location": [
                56.899993,
                24.098244
            ],
            "inside": [
                {
                    "trainer_name": "jurijsa",
                    "pokemon_id": 136,
                    "cp": 2636
                }
            ],
            "url": "http://lh3.ggpht.com/VdkZe2SWVmt87wQwPhpRwK62kKJ4xp51X78xZdEFL8lQA5FfjlyLEa6Bnp_O9mdJicaOWZ3J-kJWaynTKAIl",
            "lastseen": "2018-01-13T12:25:31.397Z"
        },
        {
            "enabled": true,
            "gym_id": "61de0356a01c4211aa960ed7d4490792.16",
            "gym_name": "Lemon Party",
            "gym_points": 2051,
            "team_id": 2,
            "gym_inid": "59483e824710440d9a87458b",
            "longitude": 56.913284,
            "latitude": 24.117727,
            "location": [
                56.913284,
                24.117727
            ],
            "inside": [
                {}
            ],
            "url": "http://lh3.googleusercontent.com/O3_VfC1bi3evHGOsk92tr9uZgTSSslpDnM082_ysOKvCO7j6ouYw6h_qciCKO_Dh8hNGp2kdmiOymSo0E00",
            "lastseen": "2018-01-13T09:15:39.507Z"
        },
        {
            "enabled": true,
            "gym_id": "7bec980d6f794c97a59049951522c794.16",
            "gym_name": "The Head",
            "gym_points": 3248,
            "team_id": 3,
            "gym_inid": "5865391058422732bc3fb390",
            "longitude": 56.912632,
            "latitude": 24.118911,
            "location": [
                56.912632,
                24.118911
            ],
            "inside": [
                {}
            ],
            "url": "http://lh4.ggpht.com/kjW0e1folntcU8BC9zWPuXDQ8i_HLvcPDPHVGBkh-8r0NjpSac9nyj7AEcRLgb00dgzVfxOcUPrGe9KtHRA",
            "lastseen": "2018-01-13T09:15:39.517Z"
        },
        {
            "enabled": true,
            "gym_id": "364b073615354ce4a27f8274f0a25610.16",
            "gym_name": "Rigas 2. Slimnica",
            "gym_points": 6542,
            "team_id": 2,
            "gym_inid": "58653910cfb1ad32b7d60280",
            "longitude": 56.916281,
            "latitude": 24.090352,
            "location": [
                56.916281,
                24.090352
            ],
            "inside": [
                {
                    "trainer_name": "kri8on",
                    "pokemon_id": 242,
                    "cp": 2223
                },
                {
                    "trainer_name": "DainisRP",
                    "pokemon_id": 113,
                    "cp": 1012
                },
                {
                    "trainer_name": "Sokrats7",
                    "pokemon_id": 143,
                    "cp": 1876
                },
                {
                    "trainer_name": "Leoneal7",
                    "pokemon_id": 149,
                    "cp": 2426
                }
            ],
            "url": "http://lh6.ggpht.com/nbcFOjg4ij459tQ8GBA-P1ReviYA0QZz1bTQ_fyd7bzoyiGMf6L50m3ejxxDp8AtWA9bp0AwzOL1mSJwytk",
            "lastseen": "2018-01-13T11:37:05.159Z"
        },
        {
            "enabled": true,
            "gym_id": "574cf2f0066a4be690a9fb7c0340abc4.16",
            "gym_name": "Kids Playground",
            "gym_points": 464,
            "team_id": 2,
            "gym_inid": "59483eead383990da62b2078",
            "longitude": 56.900414,
            "latitude": 24.089003,
            "location": [
                56.900414,
                24.089003
            ],
            "inside": [
                {
                    "trainer_name": "mmali4ka",
                    "pokemon_id": 320,
                    "cp": 761
                }
            ],
            "url": "http://lh3.googleusercontent.com/jTj84mkawExXkidfN3bjLT1RsCD-Bk-8u7tvhVLNUgGthenBsArP6Cx9hIjM8e4XeTkW1HTcVqYPzfpiUyH9bg",
            "lastseen": "2018-01-13T12:25:31.394Z"
        },
        {
            "enabled": true,
            "gym_id": "5a621621784844f695038b30467a0ab5.11",
            "gym_name": "Old City Border",
            "gym_points": 2457,
            "team_id": 1,
            "gym_inid": "5865391058422732bc3fb38c",
            "longitude": 56.905972,
            "latitude": 24.082677,
            "location": [
                56.905972,
                24.082677
            ],
            "inside": [
                {
                    "trainer_name": "Artiskr",
                    "pokemon_id": 302,
                    "cp": 974
                },
                {
                    "trainer_name": "Kristela97",
                    "pokemon_id": 136,
                    "cp": 2397
                }
            ],
            "url": "http://lh3.googleusercontent.com/Re08jWTd98c6rbLLR3nqjYZ46UzcmENehr0qIC6IVSHjBRKGxlQnRPtLBIOw1-ssr5cMG8XoGidf3YP0pqAE",
            "lastseen": "2018-01-13T11:36:09.268Z"
        },
        {
            "enabled": true,
            "gym_id": "dc791fb1cb324788af6c282e6cac5815.16",
            "gym_name": "Blue Swan",
            "gym_points": 1737,
            "team_id": 3,
            "gym_inid": "5865395a58422732bc3fb5e7",
            "longitude": 56.919438,
            "latitude": 24.09577,
            "location": [
                56.919438,
                24.09577
            ],
            "inside": [
                {
                    "trainer_name": "ZiilsPonijs",
                    "pokemon_id": 188,
                    "cp": 726
                },
                {
                    "trainer_name": "alex1165389vv",
                    "pokemon_id": 19,
                    "cp": 40
                },
                {
                    "trainer_name": "abernetijs",
                    "pokemon_id": 1,
                    "cp": 462
                },
                {
                    "trainer_name": "edzhuks",
                    "pokemon_id": 112,
                    "cp": 2644
                },
                {
                    "trainer_name": "davidslidini",
                    "pokemon_id": 134,
                    "cp": 2370
                },
                {
                    "trainer_name": "iKartupelis",
                    "pokemon_id": 71,
                    "cp": 1860
                }
            ],
            "url": "http://lh5.ggpht.com/SQq1wQ5tyyC7CTM3F4QBQHVxOsfcPkhqKjEUtFa-oNg3gGAhUFRvUGONQh1Sfj6V0DheHC9ILUoNx3uoCJ8",
            "lastseen": "2018-01-13T11:37:04.043Z"
        },
        {
            "enabled": true,
            "gym_id": "f6e41065effc44d2b22cc7eebfd45597.11",
            "gym_name": "Hippopotamus",
            "gym_points": 469,
            "team_id": 2,
            "gym_inid": "5865395a58422732bc3fb5e6",
            "longitude": 56.921713,
            "latitude": 24.106664,
            "location": [
                56.921713,
                24.106664
            ],
            "inside": [
                {
                    "trainer_name": "blood13bath",
                    "pokemon_id": 242,
                    "cp": 2344
                }
            ],
            "url": "http://lh5.ggpht.com/vqxbP0XRXPJTIT4VxGvzrHPor4ATpugzfxpM6QZb5mpzi80yMKOhRw57HeCn8uZ8NG11yOAt1QamzzPmYTTY",
            "lastseen": "2018-01-13T11:36:56.509Z"
        },
        {
            "enabled": true,
            "gym_id": "9b02479eefec454a833c8d15d5690125.16",
            "gym_name": "Rigas Pestitaja Svetbildes Pareizticiga Baznica",
            "gym_points": 1571,
            "team_id": 1,
            "gym_inid": "59483e0fd383990da62ab556",
            "longitude": 56.920397,
            "latitude": 24.089331,
            "location": [
                56.920397,
                24.089331
            ],
            "inside": [
                {
                    "trainer_name": "Mortricija",
                    "pokemon_id": 339,
                    "cp": 271
                },
                {
                    "trainer_name": "Zubuliite",
                    "pokemon_id": 3,
                    "cp": 1564
                }
            ],
            "url": "http://lh4.ggpht.com/mbIAaVslVnKPZ-xed97ncpWluZZ8OKwZ1MqOA8Ig1ojRJFvd9LtsWBM3wb1fsH77pmz1kKAtzcWzU992EhFD",
            "lastseen": "2018-01-13T11:37:13.858Z"
        },
        {
            "enabled": true,
            "gym_id": "8cf159acd058467684f6472984e58450.16",
            "gym_name": "Turība",
            "gym_points": 367,
            "team_id": 1,
            "gym_inid": "5865393b58422732bc3fb514",
            "longitude": 56.911052,
            "latitude": 24.077694,
            "location": [
                56.911052,
                24.077694
            ],
            "inside": [
                {
                    "trainer_name": "Dondonjoo",
                    "pokemon_id": 216,
                    "cp": 477
                }
            ],
            "url": "http://lh3.ggpht.com/ZZyEG_rflr3nMHgjwD8Ze0gPxhmjhuJBy31XOxJygZl89BUVLdRA-lygeMNiJG8gpsuFKwgaZU7VShmjRP8",
            "lastseen": "2018-01-13T11:11:11.229Z"
        },
        {
            "enabled": true,
            "gym_id": "ab4326e64a6846c78ab5e741f2cb8917.11",
            "gym_name": "James Armitstead Monument",
            "gym_points": 2350,
            "team_id": 2,
            "gym_inid": "5865395acfb1ad32b7d604be",
            "longitude": 56.921956,
            "latitude": 24.088235,
            "location": [
                56.921956,
                24.088235
            ],
            "inside": [
                {
                    "trainer_name": "kri8on",
                    "pokemon_id": 242,
                    "cp": 2758
                }
            ],
            "url": "http://lh4.ggpht.com/tEVfBSJKn95qoOP-1LEDgMC9_i9N1-ZDgTkm82O8x4c-GM0TE7emlhfWs1GD8h6MRT18vljKj_nqZaCvg6zSKZyanLjbc7gkVQCj_AdE9rUvwnuO",
            "lastseen": "2018-01-13T11:37:13.856Z"
        },
        {
            "enabled": true,
            "gym_id": "b2e77386b3624caebf57a5ef4fce3a84.16",
            "gym_name": "Wall Painting - Santa",
            "gym_points": 1360,
            "team_id": 2,
            "gym_inid": "5865395acfb1ad32b7d604bf",
            "longitude": 56.921054,
            "latitude": 24.083402,
            "location": [
                56.921054,
                24.083402
            ],
            "inside": [
                {
                    "trainer_name": "Leoneal7",
                    "pokemon_id": 15,
                    "cp": 1345
                },
                {
                    "trainer_name": "Sokrats7",
                    "pokemon_id": 113,
                    "cp": 406
                }
            ],
            "url": "http://lh5.ggpht.com/8KoHAWgAfieCW3YGCFKsiHku7qQoWCND-GLVi8LrVVwZh8K56iyAJBH05W6LLafcMakbfAn0mx7SRwhkIrvP9A",
            "lastseen": "2018-01-13T11:37:13.864Z"
        },
        {
            "enabled": true,
            "gym_id": "03b448aae87c4eec8d46bb5fb9267060.16",
            "gym_name": "Bišumuiža",
            "gym_points": 430,
            "team_id": 3,
            "gym_inid": "586539a7cfb1ad32b7d60818",
            "longitude": 56.912445,
            "latitude": 24.137532,
            "location": [
                56.912445,
                24.137532
            ],
            "inside": [
                {
                    "trainer_name": "Pokemonskolotaj",
                    "pokemon_id": 113,
                    "cp": 833
                },
                {
                    "trainer_name": "Zpaulis",
                    "pokemon_id": 364,
                    "cp": 1315
                }
            ],
            "url": "http://lh3.ggpht.com/XBVf1PZH1ErnAbXFHQqPBbEQO2uhmjH1bDj2Huxl_bw6t_d3FG4HqRnIMGFad6IpqbgTod6mdnsiBeplD23o",
            "lastseen": "2018-01-09T09:45:42.500Z"
        },
        {
            "enabled": true,
            "gym_id": "92652efb1db847959c263690634ac090.16",
            "gym_name": "Shrek Castle",
            "gym_points": 4147,
            "team_id": 2,
            "gym_inid": "5865393b58422732bc3fb513",
            "longitude": 56.916959,
            "latitude": 24.073659,
            "location": [
                56.916959,
                24.073659
            ],
            "inside": [
                {
                    "trainer_name": "BiancaFhaye",
                    "pokemon_id": 2,
                    "cp": 1209
                },
                {
                    "trainer_name": "kri8on",
                    "pokemon_id": 234,
                    "cp": 909
                },
                {
                    "trainer_name": "Purziks2",
                    "pokemon_id": 168,
                    "cp": 1371
                },
                {
                    "trainer_name": "Lonchinators",
                    "pokemon_id": 149,
                    "cp": 3083
                }
            ],
            "url": "http://lh3.ggpht.com/g1HlLc7ZRF6RmYq7_rib7VBnkcaMphCsDVRSit3wQF6ButiqATEOykmLdHoW_FhHl7g3L9PTGLTzO3aeWbk",
            "lastseen": "2018-01-13T11:37:05.141Z"
        },
        {
            "enabled": true,
            "gym_id": "5ba1237756674920b13a165c582c91cb.16",
            "gym_name": "Leaning Man",
            "gym_points": 992,
            "team_id": 1,
            "gym_inid": "59483e2c4710440d9a871635",
            "longitude": 56.926687,
            "latitude": 24.092878,
            "location": [
                56.926687,
                24.092878
            ],
            "inside": [
                {
                    "trainer_name": "melnzeme",
                    "pokemon_id": 112,
                    "cp": 2079
                },
                {
                    "trainer_name": "Mortricija",
                    "pokemon_id": 261,
                    "cp": 314
                }
            ],
            "url": "http://lh6.ggpht.com/DEkuvsDbPWX_WmxLIAnkGSnFK2KM0CziOKXnZmS60Iu6I0htkOgaSrcLuW67syt2WVV7A0CL_ncj0DvsPDk",
            "lastseen": "2018-01-13T11:37:13.876Z"
        },
        {
            "enabled": true,
            "gym_id": "2d1095db888d427ab1e9967f1da6aad1.16",
            "gym_name": "Rīgas 4.pasta nodaļa",
            "gym_points": 410,
            "team_id": 3,
            "gym_inid": "58644b0758422732bc3b862b",
            "longitude": 56.92713,
            "latitude": 24.091659,
            "location": [
                56.92713,
                24.091659
            ],
            "inside": [
                {
                    "trainer_name": "Zpaulis",
                    "pokemon_id": 16,
                    "cp": 452
                }
            ],
            "url": "http://lh3.googleusercontent.com/HPYea-FkG6GI2cke84fxsoAQa3OL7w3cL6Q0OLcVRrsf-iVQKVZ8fuiV3rpAoZk_srQmfzzsxWypMIwZ4bRf",
            "lastseen": "2018-01-13T11:37:13.878Z"
        },
        {
            "enabled": true,
            "gym_id": "624f2ab7d07847efa8a484f8f489482c.16",
            "gym_name": "Old House Roof Tower 1903",
            "gym_points": 1481,
            "team_id": 2,
            "gym_inid": "59483e12d383990da62ab6ff",
            "longitude": 56.925634,
            "latitude": 24.084779,
            "location": [
                56.925634,
                24.084779
            ],
            "inside": [
                {
                    "trainer_name": "Leoneal7",
                    "pokemon_id": 66,
                    "cp": 1001
                },
                {
                    "trainer_name": "Sokrats7",
                    "pokemon_id": 113,
                    "cp": 826
                }
            ],
            "url": "http://lh5.ggpht.com/dk_Ye4zUUdGdhCMN3tsUn0e1yT19N_wnufMkpf-2LVIAijCF_nGtLlCyMKQy8nc1hfhpS_v0_g8UmzAouGO9pQ",
            "lastseen": "2018-01-13T11:37:13.872Z"
        },
        {
            "enabled": true,
            "gym_id": "c3a442b1d3724d97a54e8edb724ada67.16",
            "gym_name": "Fricim Brivzemniekam 150",
            "gym_points": 943,
            "team_id": 1,
            "gym_inid": "58644b07cfb1ad32b7d19f90",
            "longitude": 56.92883,
            "latitude": 24.090444,
            "location": [
                56.92883,
                24.090444
            ],
            "inside": [
                {
                    "trainer_name": "FiksaaShnicele",
                    "pokemon_id": 160,
                    "cp": 2674
                },
                {
                    "trainer_name": "Artur005",
                    "pokemon_id": 80,
                    "cp": 2041
                }
            ],
            "url": "http://lh4.ggpht.com/coiRNrsM9nldGHLX6Q89yc4aHT1mt-qkaPqRyQxl5XzAv_H4QMh8F1ZUsu_WHO59HDAz9yYX2LU5sDNiam_TIA",
            "lastseen": "2018-01-13T11:37:13.867Z"
        },
        {
            "enabled": true,
            "gym_id": "8cbfd0efd6a049babc92ca55920ca428.16",
            "gym_name": "Map of City Riga",
            "gym_points": 1170,
            "team_id": 1,
            "gym_inid": "58905d565720906720b42523",
            "longitude": 56.897137,
            "latitude": 24.139721,
            "location": [
                56.897137,
                24.139721
            ],
            "inside": [
                {
                    "trainer_name": "PokyCmoky",
                    "pokemon_id": 124,
                    "cp": 1229
                }
            ],
            "url": "http://lh4.ggpht.com/BB0_VC-xl4YxT4VPxvynUQ47CcyN47I0PGrG-SPpd17YED1L4j0Y-LS3DfMxHhfpzzcw31Sy6GgwlGj1qj-F",
            "lastseen": "2018-01-03T07:21:05.172Z"
        },
        {
            "enabled": true,
            "gym_id": "9bc7296dc174476ca89a18d6cfaaa46e.16",
            "gym_name": "Lucavsalas Atpūtas Parks",
            "gym_points": 2959,
            "team_id": 1,
            "gym_inid": "58643607cfb1ad32b7d15478",
            "longitude": 56.930443,
            "latitude": 24.112621,
            "location": [
                56.930443,
                24.112621
            ],
            "inside": [
                {
                    "trainer_name": "uldisR",
                    "pokemon_id": 149,
                    "cp": 3117
                }
            ],
            "url": "http://lh6.ggpht.com/bgqbO5LNHi3A1J4pbt_tW8K62eKlDMI4CUYWlAP1KPbLRryTrCyVMcCFcv-Mm9umSl40ouLUunJakDlxEVQ9fg",
            "lastseen": "2018-01-13T11:25:10.388Z"
        },
        {
            "enabled": true,
            "gym_id": "641865b9a6c345cd9bb7fffaa72ea1a9.16",
            "gym_name": "Tv Tornis",
            "gym_points": 2388,
            "team_id": 1,
            "gym_inid": "587125b3a1a38e138e2f3796",
            "longitude": 56.923645,
            "latitude": 24.136836,
            "location": [
                56.923645,
                24.136836
            ],
            "inside": [
                {
                    "trainer_name": "34410A",
                    "pokemon_id": 164,
                    "cp": 1645
                },
                {
                    "trainer_name": "LaumaEV",
                    "pokemon_id": 135,
                    "cp": 2130
                },
                {
                    "trainer_name": "MiEdgars",
                    "pokemon_id": 59,
                    "cp": 1839
                },
                {
                    "trainer_name": "monarchpg",
                    "pokemon_id": 359,
                    "cp": 1288
                },
                {
                    "trainer_name": "Imantnieks",
                    "pokemon_id": 76,
                    "cp": 2279
                },
                {
                    "trainer_name": "marchikss",
                    "pokemon_id": 112,
                    "cp": 2757
                }
            ],
            "url": "http://lh6.ggpht.com/XrbWWQx9shxV2hRtF0GmPtyW9TIVa41BUNqKx3qJx_qWC8p2iaGCCCJ7ZxypOFyS8HUCEUaPBNtCPFxeT44",
            "lastseen": "2018-01-13T11:15:56.680Z"
        },
        {
            "enabled": true,
            "gym_id": "2e6e8c0ada994f73a2f0d2598db47658.16",
            "gym_name": "Dzeltenie Palagi",
            "gym_points": 1046,
            "team_id": 3,
            "gym_inid": "588df09aa00565671b74c4f9",
            "longitude": 56.916962,
            "latitude": 24.06366,
            "location": [
                56.916962,
                24.06366
            ],
            "inside": [
                {
                    "trainer_name": "KillAllPocemons",
                    "pokemon_id": 130,
                    "cp": 2717
                },
                {
                    "trainer_name": "Pokelkokel",
                    "pokemon_id": 242,
                    "cp": 2517
                }
            ],
            "url": "http://lh4.ggpht.com/DnsvOwUOu8tRPHoayIyihSYqMmTeARbv6gWrTOziMLxCdXFrzpUKIAKandEBexLVMm97sKAaWxBAIA6RuzCu",
            "lastseen": "2018-01-13T11:11:11.063Z"
        },
        {
            "enabled": true,
            "gym_id": "522e1612daff4e4598698325646e520d.16",
            "gym_name": "Caurums",
            "gym_points": 2630,
            "team_id": 3,
            "gym_inid": "5865393bcfb1ad32b7d60423",
            "longitude": 56.916542,
            "latitude": 24.062968,
            "location": [
                56.916542,
                24.062968
            ],
            "inside": [
                {
                    "trainer_name": "KillAllPocemons",
                    "pokemon_id": 196,
                    "cp": 2475
                },
                {
                    "trainer_name": "Eliitis",
                    "pokemon_id": 297,
                    "cp": 2458
                },
                {
                    "trainer_name": "Jusis11",
                    "pokemon_id": 207,
                    "cp": 739
                },
                {
                    "trainer_name": "annapanna12",
                    "pokemon_id": 242,
                    "cp": 3003
                },
                {
                    "trainer_name": "Pokelkokel",
                    "pokemon_id": 143,
                    "cp": 2681
                },
                {
                    "trainer_name": "1yellowwarrior",
                    "pokemon_id": 134,
                    "cp": 1790
                }
            ],
            "url": "http://lh6.ggpht.com/mWglLKhnzvITwTLjRZIo4QifqqR8Soj-aq98lJ9K8hi_0HhQgTSciLS6LfEZAvT2CNyP4zjZYhsVfR8l3urO",
            "lastseen": "2018-01-13T11:11:11.066Z"
        },
        {
            "enabled": true,
            "gym_id": "f6e5132bad3540de85c5d50e40e0db7a.16",
            "gym_name": "Lucavsalas Glābēji",
            "gym_points": 1001,
            "team_id": 2,
            "gym_inid": "5864360758422732bc3b0b02",
            "longitude": 56.932064,
            "latitude": 24.110902,
            "location": [
                56.932064,
                24.110902
            ],
            "inside": [
                {
                    "trainer_name": "Sokrats7",
                    "pokemon_id": 113,
                    "cp": 1132
                },
                {
                    "trainer_name": "Leoneal7",
                    "pokemon_id": 73,
                    "cp": 2150
                }
            ],
            "url": "http://lh3.ggpht.com/vt_D8VTIEdnxN2hVwD1DZnrZbeBOoHAViI8NtBoxwTmX1--sTiTILhMZ47q1T-JVNbVIRsMKHzjy8FWcGJYO",
            "lastseen": "2018-01-13T11:17:23.485Z"
        },
        {
            "enabled": true,
            "gym_id": "2625d53085fc45a5ab02708e2228cb20.16",
            "gym_name": "Jāņa Akuratera Memorial Museum ",
            "gym_points": 2406,
            "team_id": 2,
            "gym_inid": "59483fe7920cb40da008aaab",
            "longitude": 56.929474,
            "latitude": 24.081122,
            "location": [
                56.929474,
                24.081122
            ],
            "inside": [
                {
                    "trainer_name": "Sokrats7",
                    "pokemon_id": 113,
                    "cp": 784
                },
                {
                    "trainer_name": "Leoneal7",
                    "pokemon_id": 143,
                    "cp": 681
                },
                {
                    "trainer_name": "LvLynx",
                    "pokemon_id": 7,
                    "cp": 594
                },
                {
                    "trainer_name": "Purziks2",
                    "pokemon_id": 98,
                    "cp": 698
                }
            ],
            "url": "http://lh5.ggpht.com/xz7kjdLJVF4QqotDcYskc6pu620q2mTw3OQued4yi65ecwZvyEU72opbSZrLuvJIXaWdEv25vu910bdbDBBS",
            "lastseen": "2018-01-13T10:29:27.001Z"
        },
        {
            "enabled": true,
            "gym_id": "de3d7fde1ae94997b89e04c4634badbc.11",
            "gym_name": "Monument of Soviet Genocide",
            "gym_points": 3462,
            "team_id": 1,
            "gym_inid": "58644b07cfb1ad32b7d19f91",
            "longitude": 56.931863,
            "latitude": 24.088836,
            "location": [
                56.931863,
                24.088836
            ],
            "inside": [
                {
                    "trainer_name": "ArmandsG",
                    "pokemon_id": 242,
                    "cp": 2742
                },
                {
                    "trainer_name": "PraiseSOLAIR",
                    "pokemon_id": 143,
                    "cp": 2850
                },
                {
                    "trainer_name": "De9is",
                    "pokemon_id": 264,
                    "cp": 1159
                },
                {
                    "trainer_name": "raivisnagla",
                    "pokemon_id": 124,
                    "cp": 996
                },
                {
                    "trainer_name": "MrsArceus",
                    "pokemon_id": 248,
                    "cp": 2339
                }
            ],
            "url": "http://lh5.ggpht.com/f3alKRlfcIFzWqc9W79rp424TRVD1487av3yDL7MHpJXyWzMv33EPlVExOxkm1ZpepvOtIZWjOAYPKeeNyaWONujJiE-IIgj2U3D2pYjCOuFsy7h",
            "lastseen": "2018-01-13T11:38:56.331Z"
        },
        {
            "enabled": true,
            "gym_id": "b19f73e1919a4814800c753b3ed508db.16",
            "gym_name": "Ojāra Vācieša Memorial Museum",
            "gym_points": 2409,
            "team_id": 2,
            "gym_inid": "58644b0758422732bc3b862a",
            "longitude": 56.929928,
            "latitude": 24.081122,
            "location": [
                56.929928,
                24.081122
            ],
            "inside": [
                {
                    "trainer_name": "Leoneal7",
                    "pokemon_id": 237,
                    "cp": 674
                },
                {
                    "trainer_name": "Sokrats7",
                    "pokemon_id": 113,
                    "cp": 780
                },
                {
                    "trainer_name": "LvLynx",
                    "pokemon_id": 7,
                    "cp": 528
                },
                {
                    "trainer_name": "Purziks2",
                    "pokemon_id": 320,
                    "cp": 825
                }
            ],
            "url": "http://lh6.ggpht.com/xVGPagoa0L6uMyUnzPpII-jHUdjploBd1Vpd_T1DRomYt2Y8e2pRI8Lwjwi8mEyl7Bl-DfesPQy7i-6_Rppd",
            "lastseen": "2018-01-13T10:29:27.000Z"
        },
        {
            "enabled": true,
            "gym_id": "a4a7393d0a304331bf2858170ff8db45.16",
            "gym_name": "Sienas Zimejums",
            "gym_points": 3342,
            "team_id": 1,
            "gym_inid": "59483ff7920cb40da008b1b1",
            "longitude": 56.931754,
            "latitude": 24.085869,
            "location": [
                56.931754,
                24.085869
            ],
            "inside": [
                {
                    "trainer_name": "FiksaaShnicele",
                    "pokemon_id": 315,
                    "cp": 1275
                },
                {
                    "trainer_name": "Aghxert",
                    "pokemon_id": 134,
                    "cp": 2737
                },
                {
                    "trainer_name": "Artur005",
                    "pokemon_id": 112,
                    "cp": 2523
                }
            ],
            "url": "http://lh4.ggpht.com/-Dw4N7QRmSN3Z_94gJJDoDtQRq8cddekfK_iBzboTwyj6H_H8KlfIIl_dEPlxj70lfL7UdX24oraV9urTMyy",
            "lastseen": "2018-01-13T11:38:56.329Z"
        },
        {
            "enabled": true,
            "gym_id": "efb6137dde2443f8bc6fe0e434861662.16",
            "gym_name": "Stage Ruins",
            "gym_points": 3110,
            "team_id": 1,
            "gym_inid": "58644b07cfb1ad32b7d19f8f",
            "longitude": 56.931736,
            "latitude": 24.084528,
            "location": [
                56.931736,
                24.084528
            ],
            "inside": [
                {
                    "trainer_name": "Aghxert",
                    "pokemon_id": 89,
                    "cp": 2468
                },
                {
                    "trainer_name": "Artur005",
                    "pokemon_id": 59,
                    "cp": 2461
                },
                {
                    "trainer_name": "FiksaaShnicele",
                    "pokemon_id": 22,
                    "cp": 1251
                }
            ],
            "url": "http://lh3.ggpht.com/5SP-UMsyHXdol5BybIzAsN9o-0--2eTLPw6r7_J-eYi2CuW89ux1S2UzMjFNw5JebIYmNXq_TncsQWmnsQT9",
            "lastseen": "2018-01-13T11:38:56.324Z"
        },
        {
            "enabled": true,
            "gym_id": "64474f4d906d44dab44e6ec863bcb5a2.16",
            "gym_name": "Marupes Pasts",
            "gym_points": 1713,
            "team_id": 2,
            "gym_inid": "5865393bcfb1ad32b7d60422",
            "longitude": 56.905398,
            "latitude": 24.056701,
            "location": [
                56.905398,
                24.056701
            ],
            "inside": [
                {
                    "trainer_name": "Purziks2",
                    "pokemon_id": 142,
                    "cp": 1819
                }
            ],
            "url": "http://lh6.ggpht.com/D3UWrRfttkSvK7iOsuBStBTsA1dlpRf8QagsRwu37F_47ZAKQFb4FXDLO4mhZ7oQQX4kaIKMY-E9Jp1OoXoZ",
            "lastseen": "2018-01-12T16:12:46.059Z"
        },
        {
            "enabled": true,
            "gym_id": "cf72824d42ac43a894191f8a80c7e2c6.16",
            "gym_name": "Stepping Stone",
            "gym_points": 1102,
            "team_id": 3,
            "gym_inid": "588df09aa00565671b74c4fe",
            "longitude": 56.91852,
            "latitude": 24.060008,
            "location": [
                56.91852,
                24.060008
            ],
            "inside": [
                {
                    "trainer_name": "KillAllPocemons",
                    "pokemon_id": 112,
                    "cp": 2914
                },
                {
                    "trainer_name": "Pokelkokel",
                    "pokemon_id": 242,
                    "cp": 2595
                }
            ],
            "url": "http://lh3.ggpht.com/jNHXKjCEHrqTDFLkWwiB0kV8PJTXRrTqp6LqHJ0XiPSecUgmNTi10zAB_rGzVxLdW2denOOPVoswV8xdKa6c",
            "lastseen": "2018-01-12T22:10:38.675Z"
        }
    ],
    "pokestops": [
        {
            "pokestop_id": "91d38431a9eb4384b20be28ecf799e2a.16",
            "longitude": 56.909793,
            "latitude": 24.102048
        },
        {
            "pokestop_id": "9f318566b2f24a11b4a538a14a0944d9.16",
            "longitude": 56.907687,
            "latitude": 24.107925
        },
        {
            "pokestop_id": "c3127068bbf042e5a72134008ffa4652.16",
            "longitude": 56.905275,
            "latitude": 24.101177
        },
        {
            "pokestop_id": "3a73e1719a194bbfaeab15b3552a5cb9.16",
            "longitude": 56.912607,
            "latitude": 24.102185
        },
        {
            "pokestop_id": "6803d1fee67443458f7a1b7d286ade7e.16",
            "longitude": 56.905034,
            "latitude": 24.098256
        },
        {
            "pokestop_id": "1202ad3025004cddb0a07e799372189a.16",
            "longitude": 56.911604,
            "latitude": 24.09676
        },
        {
            "pokestop_id": "53db60abbd534ffdb58c3533c6bc23d8.16",
            "longitude": 56.903114,
            "latitude": 24.101672
        },
        {
            "pokestop_id": "4b133810ad6944b28a1326d5de29b1d9.16",
            "longitude": 56.91187,
            "latitude": 24.096408
        },
        {
            "pokestop_id": "dcc0d206a9d54208a8b9b34b9ac9a4ea.16",
            "longitude": 56.903021,
            "latitude": 24.097897
        },
        {
            "pokestop_id": "911a46f8ab474ca2a605bc9260681b07.16",
            "longitude": 56.914079,
            "latitude": 24.100235
        },
        {
            "pokestop_id": "54eddd0a3bdd496ebb809241db947745.16",
            "longitude": 56.901978,
            "latitude": 24.097946
        },
        {
            "pokestop_id": "0a90ab4ecddf467ea0112c0f1760d5c6.16",
            "longitude": 56.901141,
            "latitude": 24.101759
        },
        {
            "pokestop_id": "e8a9ce377a5b45b6bab9323ad89448ea.16",
            "longitude": 56.913844,
            "latitude": 24.112481
        },
        {
            "pokestop_id": "a52b7c872c2048298f991c955e06daf3.16",
            "longitude": 56.900641,
            "latitude": 24.097825
        },
        {
            "pokestop_id": "d311ba8928054817bad4a039e00b9d15.16",
            "longitude": 56.9165,
            "latitude": 24.106869
        },
        {
            "pokestop_id": "ee68b17cf5614f82831a0892c546f8bc.16",
            "longitude": 56.901444,
            "latitude": 24.094939
        },
        {
            "pokestop_id": "eda7e39e95ef4cdf9ea06dc1198e94d4.16",
            "longitude": 56.901843,
            "latitude": 24.093755
        },
        {
            "pokestop_id": "5ebab5230dde4d91ab16244b86cf64e9.16",
            "longitude": 56.913869,
            "latitude": 24.116944
        },
        {
            "pokestop_id": "6d7df7c67e5f465fb2dc38501cdc590f.16",
            "longitude": 56.915368,
            "latitude": 24.091796
        },
        {
            "pokestop_id": "3e3ea0a6c8064b44ba219d72d352d5d1.16",
            "longitude": 56.914348,
            "latitude": 24.118171
        },
        {
            "pokestop_id": "2baf997db25c4e03965ba76888b40781.16",
            "longitude": 56.902963,
            "latitude": 24.087627
        },
        {
            "pokestop_id": "b5d6c5e1856b49a2b8901d3580993d5a.16",
            "longitude": 56.91194,
            "latitude": 24.085969
        },
        {
            "pokestop_id": "8502486054de413d9f91a313335885d2.16",
            "longitude": 56.914815,
            "latitude": 24.119441
        },
        {
            "pokestop_id": "5f4b6e7891724b859f014177cc2c1a8f.16",
            "longitude": 56.901871,
            "latitude": 24.087475
        },
        {
            "pokestop_id": "fdaf483f47aa41f2acf36b2035e06b63.16",
            "longitude": 56.917744,
            "latitude": 24.115158
        },
        {
            "pokestop_id": "e3c1b194d2e548c4b1380a3f6cb04b36.16",
            "longitude": 56.916462,
            "latitude": 24.087467
        },
        {
            "pokestop_id": "09b58007e2f046869ab30fce28735f37.16",
            "longitude": 56.910917,
            "latitude": 24.081405
        },
        {
            "pokestop_id": "47e04dd1595c4b059a671c2c7b733b87.16",
            "longitude": 56.920153,
            "latitude": 24.095557
        },
        {
            "pokestop_id": "51b9acd7fdca4fc4b1ba1ee7e6e7ba2b.16",
            "longitude": 56.918428,
            "latitude": 24.089899
        },
        {
            "pokestop_id": "2ab5f2037b564629a1f0a86d2e811497.16",
            "longitude": 56.916326,
            "latitude": 24.123015
        },
        {
            "pokestop_id": "88d867a9fb854fd7910ffc40344fb553.16",
            "longitude": 56.919788,
            "latitude": 24.08964
        },
        {
            "pokestop_id": "e013d5c43c86427491a02cef2ff63393.16",
            "longitude": 56.92209,
            "latitude": 24.10765
        },
        {
            "pokestop_id": "4a291bec128f410ea1b1f1ae41d658bd.16",
            "longitude": 56.9223,
            "latitude": 24.096442
        },
        {
            "pokestop_id": "a6662f37393444d4945d0c8adcccb2a8.16",
            "longitude": 56.920165,
            "latitude": 24.087548
        },
        {
            "pokestop_id": "61c9fa9fb33c4f9093a5474e617bcbea.16",
            "longitude": 56.920265,
            "latitude": 24.087028
        },
        {
            "pokestop_id": "5ce4a2fc0fd44bc0b846e6c29473b539.16",
            "longitude": 56.923702,
            "latitude": 24.103951
        },
        {
            "pokestop_id": "31d965b03d2b4121935c3212ca2d77cd.16",
            "longitude": 56.920552,
            "latitude": 24.085638
        },
        {
            "pokestop_id": "c85f85a12dd84d94941f1f6acbf71217.16",
            "longitude": 56.921714,
            "latitude": 24.087533
        },
        {
            "pokestop_id": "2df81f95cdf542eb994b225baee10c7c.16",
            "longitude": 56.920714,
            "latitude": 24.084982
        },
        {
            "pokestop_id": "28c2ba276fde41ba9f22186ec01eed82.16",
            "longitude": 56.924188,
            "latitude": 24.094493
        },
        {
            "pokestop_id": "74bd6a0c3670400987eb76c2f1701f50.16",
            "longitude": 56.92518,
            "latitude": 24.105443
        },
        {
            "pokestop_id": "bef45304e5ec4a54a0b83702d54a7ab5.16",
            "longitude": 56.921533,
            "latitude": 24.082268
        },
        {
            "pokestop_id": "ce9d073a0666403397d42776a5179bac.16",
            "longitude": 56.9242,
            "latitude": 24.089103
        },
        {
            "pokestop_id": "907c7b03cb214f3386a0634a2f86020a.16",
            "longitude": 56.926331,
            "latitude": 24.102701
        },
        {
            "pokestop_id": "5454669add3a43a4bcc4eef1ecd9db07.16",
            "longitude": 56.92427,
            "latitude": 24.088363
        },
        {
            "pokestop_id": "8e8e58dc607746aca4c552166deabb12.16",
            "longitude": 56.912098,
            "latitude": 24.137414
        },
        {
            "pokestop_id": "0806b2489a2d4bd49265cc77158a4ce1.16",
            "longitude": 56.924446,
            "latitude": 24.086318
        },
        {
            "pokestop_id": "018959c6c8fc45b7916baf37aece6882.16",
            "longitude": 56.927277,
            "latitude": 24.103688
        },
        {
            "pokestop_id": "ed08cd937d7e4eb0bed573a621888780.16",
            "longitude": 56.924497,
            "latitude": 24.085327
        },
        {
            "pokestop_id": "55a5f72e5627422991c618fc4bcb18be.16",
            "longitude": 56.918689,
            "latitude": 24.074526
        },
        {
            "pokestop_id": "14966cbecac44bd5bd60a1a36d5ff680.16",
            "longitude": 56.924535,
            "latitude": 24.084524
        },
        {
            "pokestop_id": "abfeead39f5849969e923b8bcc96c66c.16",
            "longitude": 56.925627,
            "latitude": 24.087811
        },
        {
            "pokestop_id": "5865c84aedfe4662bfb12ac413be3336.16",
            "longitude": 56.927698,
            "latitude": 24.093775
        },
        {
            "pokestop_id": "64f71918d77648748a5743919ee9601e.16",
            "longitude": 56.925377,
            "latitude": 24.125619
        },
        {
            "pokestop_id": "ea8fe0fc3dbd4f64a7d82c0901348b17.16",
            "longitude": 56.928034,
            "latitude": 24.091037
        },
        {
            "pokestop_id": "666f2453dbd5416a87e0d179201594e9.16",
            "longitude": 56.928792,
            "latitude": 24.09564
        },
        {
            "pokestop_id": "b5b3438e491a413992c41f0898b289f6.16",
            "longitude": 56.897398,
            "latitude": 24.139023
        },
        {
            "pokestop_id": "3b5ee393048b40a7941cf269d4226f3d.16",
            "longitude": 56.928462,
            "latitude": 24.08716
        },
        {
            "pokestop_id": "ff563c1bd2c5428bb5d09c93cfcc42f8.16",
            "longitude": 56.930403,
            "latitude": 24.11152
        },
        {
            "pokestop_id": "ee82ec1d3d5c4f54a31a82cc1a695016.16",
            "longitude": 56.910413,
            "latitude": 24.062617
        },
        {
            "pokestop_id": "5e103546096b45619053669ecb00667e.16",
            "longitude": 56.93093,
            "latitude": 24.110895
        },
        {
            "pokestop_id": "0cfcd54ce0c944739605ff920137b744.16",
            "longitude": 56.931703,
            "latitude": 24.110736
        },
        {
            "pokestop_id": "65997345d3dd4d07a06a546082974ca1.16",
            "longitude": 56.924957,
            "latitude": 24.135902
        },
        {
            "pokestop_id": "419af6b42ca740b79b7f120334660fc1.16",
            "longitude": 56.930382,
            "latitude": 24.086625
        },
        {
            "pokestop_id": "0b2fd22f39aa47bc9c5eb61fc0455987.16",
            "longitude": 56.917235,
            "latitude": 24.063098
        },
        {
            "pokestop_id": "9bed34a7044a404db553f2cce9841231.16",
            "longitude": 56.91684,
            "latitude": 24.062492
        },
        {
            "pokestop_id": "41c5ef8d08564af48a6a34deac0713a9.16",
            "longitude": 56.931162,
            "latitude": 24.088604
        },
        {
            "pokestop_id": "fbfd99d86ff94cd683394f3141563b7f.16",
            "longitude": 56.932772,
            "latitude": 24.10411
        },
        {
            "pokestop_id": "05a78134419b4a1c9ee307347e21d962.16",
            "longitude": 56.931812,
            "latitude": 24.090515
        },
        {
            "pokestop_id": "9b4d31ab55934387afa32f0844d52a6f.16",
            "longitude": 56.932987,
            "latitude": 24.105635
        },
        {
            "pokestop_id": "7fe45b71fdbd44ce9ea4f5f68f75b951.16",
            "longitude": 56.890026,
            "latitude": 24.072777
        },
        {
            "pokestop_id": "ebd0b955920d4170bab610cb1e235ae0.12",
            "longitude": 56.932027,
            "latitude": 24.090035
        },
        {
            "pokestop_id": "1b7fa7f258014909b34a51dd4f835bf5.16",
            "longitude": 56.919842,
            "latitude": 24.063399
        },
        {
            "pokestop_id": "a752f60818b84629a8c57179612f8d91.16",
            "longitude": 56.932205,
            "latitude": 24.089281
        },
        {
            "pokestop_id": "d2e8ca32101543f28e4dba23da65a922.16",
            "longitude": 56.918082,
            "latitude": 24.061094
        },
        {
            "pokestop_id": "4fe0d632493e48bcbaa22817539adade.16",
            "longitude": 56.928301,
            "latitude": 24.075158
        },
        {
            "pokestop_id": "50346ff859934fa5bbfa000ee4a65dc5.16",
            "longitude": 56.91701,
            "latitude": 24.060083
        },
        {
            "pokestop_id": "aae1f866ec0943e1a3fb5b6dfecc7ed5.16",
            "longitude": 56.918558,
            "latitude": 24.061182
        },
        {
            "pokestop_id": "f4b3c57f21ed470d83ff1de3d2780109.16",
            "longitude": 56.901696,
            "latitude": 24.149805
        },
        {
            "pokestop_id": "ba8da1eda17d413ca15c8c4632df6142.16",
            "longitude": 56.934087,
            "latitude": 24.098366
        },
        {
            "pokestop_id": "9b132bd198cc4552a9d480dc7932f39c.16",
            "longitude": 56.929904,
            "latitude": 24.076908
        },
        {
            "pokestop_id": "6d750af658b6490f8f54335808781963.16",
            "longitude": 56.933288,
            "latitude": 24.119275
        },
        {
            "pokestop_id": "77f9dba621b545d9aec025c10a8d6517.16",
            "longitude": 56.934966,
            "latitude": 24.103956
        },
        {
            "pokestop_id": "88b9244fe6ff466aa321dd1847c44f3a.16",
            "longitude": 56.904977,
            "latitude": 24.05547
        },
        {
            "pokestop_id": "12acc7695be54763ab9a0f416d5ecf78.16",
            "longitude": 56.919191,
            "latitude": 24.059336
        },
        {
            "pokestop_id": "ba1bd9483279484ea0e23203bf5f3dee.16",
            "longitude": 56.88688,
            "latitude": 24.074412
        },
        {
            "pokestop_id": "207b8c0c13164c128a65ef3a7a9e691e.16",
            "longitude": 56.9349,
            "latitude": 24.098998
        },
        {
            "pokestop_id": "876752e31f494a519d327f559cdb0215.16",
            "longitude": 56.933056,
            "latitude": 24.085177
        },
        {
            "pokestop_id": "045be64daf0545abbaf61ad1abc4f5dd.16",
            "longitude": 56.932668,
            "latitude": 24.082566
        },
        {
            "pokestop_id": "4c6d1188053c49248cb6df80c94b0f01.16",
            "longitude": 56.918896,
            "latitude": 24.058336
        },
        {
            "pokestop_id": "11e0d22bfeaa4767bc5d33a688735b27.16",
            "longitude": 56.918315,
            "latitude": 24.057615
        },
        {
            "pokestop_id": "f5144c3e091941c2a3cc8dfb57e64e8f.16",
            "longitude": 56.935019,
            "latitude": 24.116848
        },
        {
            "pokestop_id": "f04a95ddeb9b4a748f72e97e41e0f4bd.16",
            "longitude": 56.933434,
            "latitude": 24.082346
        },
        {
            "pokestop_id": "ff20d5de2c124a89866c31978462e6fd.16",
            "longitude": 56.925761,
            "latitude": 24.064326
        },
        {
            "pokestop_id": "c6adf8813c08418a8919423fc18f1919.16",
            "longitude": 56.931768,
            "latitude": 24.076555
        },
        {
            "pokestop_id": "82ace1d405ce4c958f9246ede8672b33.16",
            "longitude": 56.9344,
            "latitude": 24.085047
        },
        {
            "pokestop_id": "e05868e53b4d4936883d093800de211c.16",
            "longitude": 56.931069,
            "latitude": 24.073583
        },
        {
            "pokestop_id": "1fe7fd640e0d459688f5ceab75297d95.16",
            "longitude": 56.933305,
            "latitude": 24.079706
        },
        {
            "pokestop_id": "15f7b37ebcee4b71ae8caf32f9b2e566.16",
            "longitude": 56.932117,
            "latitude": 24.075533
        },
        {
            "pokestop_id": "dc0b81d579bb4b47b348be3ec06aa676.16",
            "longitude": 56.930141,
            "latitude": 24.069723
        },
        {
            "pokestop_id": "b34d8bfe0d164799b140251ed3a8d2a9.16",
            "longitude": 56.932586,
            "latitude": 24.073605
        },
        {
            "pokestop_id": "c7a97fbc7e6a4f9888fccb7b9bca51c3.16",
            "longitude": 56.936547,
            "latitude": 24.088213
        },
        {
            "pokestop_id": "8c3401fe68344b02b65393d618cd9bef.16",
            "longitude": 56.930637,
            "latitude": 24.06848
        },
        {
            "pokestop_id": "34139e2be6fe4c4da89c01eccbdb637c.16",
            "longitude": 56.933087,
            "latitude": 24.073918
        },
        {
            "pokestop_id": "7958719a37d94110954248363e04bdcd.16",
            "longitude": 56.926767,
            "latitude": 24.061233
        },
        {
            "pokestop_id": "62672f7501be4c5a894863ab45946be2.16",
            "longitude": 56.937048,
            "latitude": 24.08977
        },
        {
            "pokestop_id": "b4b4d5ca44ec4be081cb620157977e97.16",
            "longitude": 56.936679,
            "latitude": 24.086217
        },
        {
            "pokestop_id": "8274c59e84644335bddd9e114c8bb200.16",
            "longitude": 56.934224,
            "latitude": 24.075379
        },
        {
            "pokestop_id": "d2666f3233824f7ab19596b0d3141eed.16",
            "longitude": 56.929219,
            "latitude": 24.06362
        },
        {
            "pokestop_id": "c9a1a906a6cc4296b78b3cc74fdfb5bd.12",
            "longitude": 56.932198,
            "latitude": 24.069006
        },
        {
            "pokestop_id": "c579fb2be48b4babbbf080d05c2589fa.16",
            "longitude": 56.938533,
            "latitude": 24.092935
        },
        {
            "pokestop_id": "adc6c2deafca4d0ca53330ca41a3f41a.16",
            "longitude": 56.883381,
            "latitude": 24.069897
        },
        {
            "pokestop_id": "5426c905a2bf4f478a77a81b29be593f.16",
            "longitude": 56.932043,
            "latitude": 24.067465
        },
        {
            "pokestop_id": "e317be1f636a443da388112f4216286c.12",
            "longitude": 56.939564,
            "latitude": 24.100083
        },
        {
            "pokestop_id": "15d2ac2ba83f436383894cb2639f8ec7.16",
            "longitude": 56.937204,
            "latitude": 24.126699
        },
        {
            "pokestop_id": "6840ce2456f04063a53574efcfc2b380.16",
            "longitude": 56.938468,
            "latitude": 24.08757
        },
        {
            "pokestop_id": "e936482dca304bcd884b615a3370da9f.16",
            "longitude": 56.939712,
            "latitude": 24.098592
        },
        {
            "pokestop_id": "54384184e20b40b5a597f93a721611d6.16",
            "longitude": 56.939672,
            "latitude": 24.096993
        },
        {
            "pokestop_id": "89572dbb4a0b469aafb8b6048af7998f.16",
            "longitude": 56.930294,
            "latitude": 24.062162
        },
        {
            "pokestop_id": "74948f5786874f5fa242b599199cb799.16",
            "longitude": 56.938924,
            "latitude": 24.120928
        },
        {
            "pokestop_id": "8e3e9cae3e8f4ecbbaaf6fcb7dd408f9.16",
            "longitude": 56.940006,
            "latitude": 24.093966
        },
        {
            "pokestop_id": "85d39f2155d242adb631cc729057b7a0.16",
            "longitude": 56.876831,
            "latitude": 24.117624
        },
        {
            "pokestop_id": "e45eb1c068f14c958e8fe306a7bce118.16",
            "longitude": 56.882968,
            "latitude": 24.06729
        },
        {
            "pokestop_id": "62d4e555eda04051b4ddd38aa45365a9.16",
            "longitude": 56.940309,
            "latitude": 24.093508
        },
        {
            "pokestop_id": "1ac6d5932f8b412384e74a9dce525b59.16",
            "longitude": 56.896749,
            "latitude": 24.047824
        },
        {
            "pokestop_id": "0124945f49b34d3d836ce510637b6af1.16",
            "longitude": 56.940219,
            "latitude": 24.119525
        },
        {
            "pokestop_id": "e0da7c60d789463082dd118a2400e4ee.16",
            "longitude": 56.935568,
            "latitude": 24.069929
        },
        {
            "pokestop_id": "3bd80ea0e20045169fd0ff7abcbe6be9.16",
            "longitude": 56.918185,
            "latitude": 24.161952
        },
        {
            "pokestop_id": "3799de23d8a34f96b833e821385fd105.16",
            "longitude": 56.939634,
            "latitude": 24.123633
        },
        {
            "pokestop_id": "e87ff1623e214bc7ada6e17114abc437.16",
            "longitude": 56.934559,
            "latitude": 24.14105
        },
        {
            "pokestop_id": "6d9b89a3813541a3ae650e14c5877570.16",
            "longitude": 56.940577,
            "latitude": 24.117994
        },
        {
            "pokestop_id": "bb9573fecd8749db9f28a93372af1f78.16",
            "longitude": 56.939843,
            "latitude": 24.122923
        },
        {
            "pokestop_id": "0c7fc79451ba4b379dda5d97b7e67a1f.16",
            "longitude": 56.930053,
            "latitude": 24.058119
        },
        {
            "pokestop_id": "1111fee0f7c34671a29e74fa740621c7.16",
            "longitude": 56.940943,
            "latitude": 24.11706
        },
        {
            "pokestop_id": "3307cff6a4d2467489c1c0d826de0c30.16",
            "longitude": 56.935669,
            "latitude": 24.068924
        },
        {
            "pokestop_id": "be5a33f2cd834a8683bf65089d6e1ed5.16",
            "longitude": 56.883548,
            "latitude": 24.145609
        },
        {
            "pokestop_id": "7a560feb060648f19525644d89982a60.16",
            "longitude": 56.919988,
            "latitude": 24.04653
        },
        {
            "pokestop_id": "84a3a95c22e14279bc083ecacb0fdcaf.16",
            "longitude": 56.941127,
            "latitude": 24.116589
        },
        {
            "pokestop_id": "8366110a818f4df0aa0147f7224b4950.16",
            "longitude": 56.940607,
            "latitude": 24.120993
        },
        {
            "pokestop_id": "553c918226bc4e32aeeca4e65e1ca91a.16",
            "longitude": 56.930882,
            "latitude": 24.149739
        },
        {
            "pokestop_id": "0458abc0d67b4af1ac69f53f9ddcbac0.16",
            "longitude": 56.939266,
            "latitude": 24.128143
        },
        {
            "pokestop_id": "f71c053a850c49e8bb52456aba2594d0.16",
            "longitude": 56.940503,
            "latitude": 24.122224
        },
        {
            "pokestop_id": "bee2ef63698949b4ba7546fbbdcb3229.16",
            "longitude": 56.938944,
            "latitude": 24.07817
        },
        {
            "pokestop_id": "4b86faa484bf43cb8ef37e6f180f6f2d.16",
            "longitude": 56.938926,
            "latitude": 24.130256
        },
        {
            "pokestop_id": "02c5b77d8a064ac9846445ec0c5d646d.16",
            "longitude": 56.937139,
            "latitude": 24.071668
        },
        {
            "pokestop_id": "d90e30bccbd048c69d765798b7b1f3ca.16",
            "longitude": 56.93914,
            "latitude": 24.078148
        },
        {
            "pokestop_id": "ee780d91306942bbaa324edd77b0abfe.16",
            "longitude": 56.941981,
            "latitude": 24.096328
        },
        {
            "pokestop_id": "aa96ec65f3ef4823928d2a69a9edb7f0.16",
            "longitude": 56.940855,
            "latitude": 24.122474
        },
        {
            "pokestop_id": "d57d3b6a2abd41afafaea76ad80f64fc.16",
            "longitude": 56.939924,
            "latitude": 24.128113
        },
        {
            "pokestop_id": "127c90e03cb9437f8c0a3006ddf126f2.16",
            "longitude": 56.939935,
            "latitude": 24.080019
        },
        {
            "pokestop_id": "e21c6f7a91764ef5bac8b3781de6bb69.16",
            "longitude": 56.939688,
            "latitude": 24.129247
        },
        {
            "pokestop_id": "0fcba9564f304c50999a7f0087493cfd.16",
            "longitude": 56.942122,
            "latitude": 24.114252
        },
        {
            "pokestop_id": "73a4a5b01cca49c38141339f577d73f0.16",
            "longitude": 56.941748,
            "latitude": 24.118586
        },
        {
            "pokestop_id": "515ba582720a4574bfe2015d6685ec52.16",
            "longitude": 56.939577,
            "latitude": 24.13097
        },
        {
            "pokestop_id": "bc45010b80aa4028b8a6d718a2ebec13.16",
            "longitude": 56.942373,
            "latitude": 24.115121
        },
        {
            "pokestop_id": "fe39a7c32b01475f87a2fcc473c2ca2c.16",
            "longitude": 56.887032,
            "latitude": 24.053486
        },
        {
            "pokestop_id": "ebc42b55705b4c81890bf4085934b278.16",
            "longitude": 56.939451,
            "latitude": 24.132426
        },
        {
            "pokestop_id": "65bac0dc1b6e4f0a86b5632448a5de65.16",
            "longitude": 56.942978,
            "latitude": 24.098257
        },
        {
            "pokestop_id": "cc17d21cc4784565ba0999f26b697a17.16",
            "longitude": 56.940424,
            "latitude": 24.079381
        },
        {
            "pokestop_id": "6a8cf4852935465aaa16897cac31055f.16",
            "longitude": 56.939085,
            "latitude": 24.07416
        },
        {
            "pokestop_id": "7f2b22de6b984b33871cd29e6420e7c0.16",
            "longitude": 56.941511,
            "latitude": 24.123613
        },
        {
            "pokestop_id": "650a295426dc4035a66b85579af90082.16",
            "longitude": 56.940299,
            "latitude": 24.129681
        },
        {
            "pokestop_id": "5faedc76b21943ce92a126cc903a9920.16",
            "longitude": 56.87421,
            "latitude": 24.119121
        },
        {
            "pokestop_id": "11d377f52fe8408497b2e0f83630cdc0.16",
            "longitude": 56.940903,
            "latitude": 24.128157
        },
        {
            "pokestop_id": "18a292c3250a40989c1e9c671b54ce88.16",
            "longitude": 56.941009,
            "latitude": 24.079774
        },
        {
            "pokestop_id": "afdb14726a054e2a8c1d550b566e9900.16",
            "longitude": 56.942156,
            "latitude": 24.122434
        },
        {
            "pokestop_id": "93481cdd9e714309aeadb63e01a2dfb7.16",
            "longitude": 56.942767,
            "latitude": 24.119358
        },
        {
            "pokestop_id": "78f2b276d2ee4c0daf1c090b30ec2ad6.16",
            "longitude": 56.927218,
            "latitude": 24.159146
        },
        {
            "pokestop_id": "70c0263de1314df19376557c26df08a6.16",
            "longitude": 56.928098,
            "latitude": 24.158586
        },
        {
            "pokestop_id": "78fe34d10f444179bd1f3855231411e9.16",
            "longitude": 56.927321,
            "latitude": 24.159536
        },
        {
            "pokestop_id": "51d198fa1b644d14bd935ce05c3483d8.16",
            "longitude": 56.943884,
            "latitude": 24.096873
        },
        {
            "pokestop_id": "93b62734693f4503be55143cd6e58e13.16",
            "longitude": 56.943763,
            "latitude": 24.094715
        },
        {
            "pokestop_id": "48b37a7198b3451c9391348fa06e1738.16",
            "longitude": 56.943825,
            "latitude": 24.114075
        },
        {
            "pokestop_id": "d40aefd5af9944b5a2e00c687743fb8e.16",
            "longitude": 56.940445,
            "latitude": 24.074605
        },
        {
            "pokestop_id": "5ccdde0a2f034d65bb39c8c59f51d1a9.11",
            "longitude": 56.935807,
            "latitude": 24.14666
        },
        {
            "pokestop_id": "e5c548c5930f429e8303eaa14fe7bcda.12",
            "longitude": 56.944357,
            "latitude": 24.108176
        },
        {
            "pokestop_id": "14c0ae009edf4a44903cb4f957d6d72c.16",
            "longitude": 56.927078,
            "latitude": 24.16073
        },
        {
            "pokestop_id": "3ca5a814355e4c87ae160e539335e025.16",
            "longitude": 56.943899,
            "latitude": 24.092433
        },
        {
            "pokestop_id": "4e7b17f0e1d5496482d7a64efe16a47c.16",
            "longitude": 56.944406,
            "latitude": 24.109818
        },
        {
            "pokestop_id": "88cc2209b3e443ba8b2c1ab33f5b94d8.16",
            "longitude": 56.927949,
            "latitude": 24.160009
        },
        {
            "pokestop_id": "1c1320f3f8ff43b8b96c5bb4fe6c0123.16",
            "longitude": 56.938223,
            "latitude": 24.141858
        },
        {
            "pokestop_id": "d8c0c961c5f8421f8c80f2120ff4b5ad.16",
            "longitude": 56.944392,
            "latitude": 24.096562
        },
        {
            "pokestop_id": "fcad1ccf33da4f928204e3ddca48f901.16",
            "longitude": 56.943802,
            "latitude": 24.118273
        },
        {
            "pokestop_id": "8a79e0058d34445e81dee68c2b132a75.16",
            "longitude": 56.939546,
            "latitude": 24.069893
        },
        {
            "pokestop_id": "ccc67cdb8547426f868fa200ca0435e0.16",
            "longitude": 56.944603,
            "latitude": 24.109183
        },
        {
            "pokestop_id": "c11c3f1b1650480fb7b4316b365cf7ee.16",
            "longitude": 56.944675,
            "latitude": 24.107366
        },
        {
            "pokestop_id": "f5a7eedb38674502b821d46d6a27dbe9.11",
            "longitude": 56.942608,
            "latitude": 24.126549
        },
        {
            "pokestop_id": "2c9689cb2d6e4c8c8384210cc2148982.16",
            "longitude": 56.935964,
            "latitude": 24.060565
        },
        {
            "pokestop_id": "14412d25016145f3b1048b255442e655.16",
            "longitude": 56.943156,
            "latitude": 24.123793
        },
        {
            "pokestop_id": "9c363c2a87a540508e45ecb4c087a979.16",
            "longitude": 56.943089,
            "latitude": 24.124347
        },
        {
            "pokestop_id": "7d4ec850519e4915827b34f2613c9849.16",
            "longitude": 56.943939,
            "latitude": 24.119375
        },
        {
            "pokestop_id": "76b06f712dbb49eebc81c90c6f5a81c2.16",
            "longitude": 56.943686,
            "latitude": 24.121259
        },
        {
            "pokestop_id": "c2b294973e01455fbf691c02cbb21f9c.16",
            "longitude": 56.94498,
            "latitude": 24.108117
        },
        {
            "pokestop_id": "601e11bca7704b73ade41709245c5358.16",
            "longitude": 56.918101,
            "latitude": 24.169063
        },
        {
            "pokestop_id": "3fc4d7eade7d45208a7c3e3f8fe99e2f.16",
            "longitude": 56.912621,
            "latitude": 24.171106
        },
        {
            "pokestop_id": "9aa1dfb5ad744dfdbb8cebc7f3a43d79.12",
            "longitude": 56.944588,
            "latitude": 24.116149
        },
        {
            "pokestop_id": "9e54cd74bce84e68a995a59315ebff22.16",
            "longitude": 56.94205,
            "latitude": 24.076708
        },
        {
            "pokestop_id": "b8662f0483a842b795c94e7a20227a01.16",
            "longitude": 56.939949,
            "latitude": 24.069272
        },
        {
            "pokestop_id": "5f22acaec79f460f8fd1539a12172c6a.16",
            "longitude": 56.94451,
            "latitude": 24.117364
        },
        {
            "pokestop_id": "efbc536ed0d74c08be8e64f550139158.16",
            "longitude": 56.942234,
            "latitude": 24.131045
        },
        {
            "pokestop_id": "1bec4fda5d8148a99bbd5ab748e0e866.16",
            "longitude": 56.935903,
            "latitude": 24.149319
        },
        {
            "pokestop_id": "8fc8390b6aca4847933019d46f7fadac.16",
            "longitude": 56.943973,
            "latitude": 24.122499
        },
        {
            "pokestop_id": "77a0d4b8adea4b3eba580b316de16f32.16",
            "longitude": 56.945471,
            "latitude": 24.108097
        },
        {
            "pokestop_id": "67ef785abf5346e1919b07b99c070738.16",
            "longitude": 56.942188,
            "latitude": 24.132397
        },
        {
            "pokestop_id": "3bdb8007fea34b57a2c1e62350cfbd24.16",
            "longitude": 56.945101,
            "latitude": 24.114944
        },
        {
            "pokestop_id": "53be3dafa4a9478780aa437d418be103.16",
            "longitude": 56.942866,
            "latitude": 24.078151
        },
        {
            "pokestop_id": "ad600a5a182b465582e47ce38bc5543d.16",
            "longitude": 56.941846,
            "latitude": 24.073932
        },
        {
            "pokestop_id": "e3b853c1b56b4ee6b42bb3745053a456.16",
            "longitude": 56.945482,
            "latitude": 24.111288
        },
        {
            "pokestop_id": "d0e206bbdd2241eb9297c5beefae5c9d.16",
            "longitude": 56.945634,
            "latitude": 24.108639
        },
        {
            "pokestop_id": "1d7e5febf8fe4b25803813750e675da6.16",
            "longitude": 56.94571,
            "latitude": 24.106667
        },
        {
            "pokestop_id": "a2d63cc4ce3e49ae8cb6b7428fffa129.16",
            "longitude": 56.945428,
            "latitude": 24.095259
        },
        {
            "pokestop_id": "8ae376063e4c4f66bc3f887f59e8aba8.16",
            "longitude": 56.937715,
            "latitude": 24.146603
        },
        {
            "pokestop_id": "c1348fe49d474526b85441f695beff65.16",
            "longitude": 56.945602,
            "latitude": 24.095689
        },
        {
            "pokestop_id": "69821444286d451996097cb39aad7cee.16",
            "longitude": 56.94237,
            "latitude": 24.074804
        },
        {
            "pokestop_id": "a8743f567b324e359f3bcadad141d2f4.16",
            "longitude": 56.923863,
            "latitude": 24.166935
        },
        {
            "pokestop_id": "34620fc3e3c3472e8e89be8a193c44ae.11",
            "longitude": 56.938055,
            "latitude": 24.14666
        },
        {
            "pokestop_id": "c091db8cf2b244838667ed167290e062.11",
            "longitude": 56.936251,
            "latitude": 24.150635
        },
        {
            "pokestop_id": "22d078d2b74741b0b6c4e1b145eac339.16",
            "longitude": 56.945885,
            "latitude": 24.110654
        },
        {
            "pokestop_id": "3688ecc0302f4eceb4a44700d8895f5e.16",
            "longitude": 56.944007,
            "latitude": 24.081229
        },
        {
            "pokestop_id": "51da622462c34e72aaffe4b27d8c7968.16",
            "longitude": 56.93886,
            "latitude": 24.063146
        },
        {
            "pokestop_id": "1e2e537762d24a02987f3804a1c7f697.16",
            "longitude": 56.945178,
            "latitude": 24.120361
        },
        {
            "pokestop_id": "a6beb8339ca54e428c4652aa37dc1e3c.16",
            "longitude": 56.945977,
            "latitude": 24.112763
        },
        {
            "pokestop_id": "884cccd5ffeb44eeb70a432178c453bf.16",
            "longitude": 56.944525,
            "latitude": 24.125144
        },
        {
            "pokestop_id": "38e480a5c7934b25aee6dd26935911ba.16",
            "longitude": 56.938756,
            "latitude": 24.145842
        },
        {
            "pokestop_id": "422159056e2a4b5db2c954c31cec58f0.16",
            "longitude": 56.944803,
            "latitude": 24.123752
        },
        {
            "pokestop_id": "20b096ada5544557a68b0339a1cb5800.16",
            "longitude": 56.946158,
            "latitude": 24.111335
        },
        {
            "pokestop_id": "f9eceb8e688f404d9ebbd59a56d8f64d.16",
            "longitude": 56.93812,
            "latitude": 24.147521
        },
        {
            "pokestop_id": "9aa16532f9fc4320a0fdcab8eaae5b31.16",
            "longitude": 56.946268,
            "latitude": 24.109956
        },
        {
            "pokestop_id": "cd2b856ed96c485f9ef66a57f4343532.16",
            "longitude": 56.941775,
            "latitude": 24.137497
        },
        {
            "pokestop_id": "8de8af945db848fda63dbc740570f077.12",
            "longitude": 56.946147,
            "latitude": 24.112319
        },
        {
            "pokestop_id": "95c7b72186af4d21bac80b16f6204955.16",
            "longitude": 56.944189,
            "latitude": 24.080448
        },
        {
            "pokestop_id": "f3f282703327496ab1b0579156083ac4.16",
            "longitude": 56.940688,
            "latitude": 24.066979
        },
        {
            "pokestop_id": "3e86a015edc14fea8565b70a5b013967.16",
            "longitude": 56.897963,
            "latitude": 24.171614
        },
        {
            "pokestop_id": "efdead93026e410585b4ea2fcf0c7d35.16",
            "longitude": 56.942848,
            "latitude": 24.134139
        },
        {
            "pokestop_id": "e8b68106683441ebb734be23975989dd.16",
            "longitude": 56.941372,
            "latitude": 24.139394
        },
        {
            "pokestop_id": "6e97fe39324b4bf8a009b427912c65a5.16",
            "longitude": 56.946343,
            "latitude": 24.111765
        },
        {
            "pokestop_id": "d700781f2b4140be82f530233590e8b3.16",
            "longitude": 56.944937,
            "latitude": 24.083669
        },
        {
            "pokestop_id": "bb46bb8ff9fd4024940d605848f3cf6f.16",
            "longitude": 56.945684,
            "latitude": 24.119434
        },
        {
            "pokestop_id": "7e2d45c5d65a4dbba22d417d4eb21f4c.16",
            "longitude": 56.946531,
            "latitude": 24.108651
        },
        {
            "pokestop_id": "10b5dab4aab744e195ad52e2ca5d235b.16",
            "longitude": 56.93378,
            "latitude": 24.156599
        },
        {
            "pokestop_id": "9d933e9819b6485aaa46112ba8a66455.16",
            "longitude": 56.944229,
            "latitude": 24.079547
        },
        {
            "pokestop_id": "cab00b46e3124b31adb46b1504c7206a.16",
            "longitude": 56.940363,
            "latitude": 24.14273
        },
        {
            "pokestop_id": "a453523cd6c44ef79148a28e419a945d.12",
            "longitude": 56.946624,
            "latitude": 24.107716
        },
        {
            "pokestop_id": "2719784fbc24403f8fd9f562e774c72e.16",
            "longitude": 56.944765,
            "latitude": 24.12609
        },
        {
            "pokestop_id": "eb638ce0e3b349d9af1a97c7f3b4d3b2.16",
            "longitude": 56.945134,
            "latitude": 24.124176
        },
        {
            "pokestop_id": "ffaa23f2407e4eeaa7f0fb222b031346.16",
            "longitude": 56.899009,
            "latitude": 24.172577
        },
        {
            "pokestop_id": "26df3850ecbc4fdbada53e3a4baf6629.16",
            "longitude": 56.946383,
            "latitude": 24.11439
        },
        {
            "pokestop_id": "b8b290f133184877bc4e4f44b4578fb5.16",
            "longitude": 56.946206,
            "latitude": 24.116525
        },
        {
            "pokestop_id": "0da8fd470d3d41a5a9df6860876d1661.12",
            "longitude": 56.946813,
            "latitude": 24.105798
        },
        {
            "pokestop_id": "e3b064c86a85449aacd6dedfb5e6b340.16",
            "longitude": 56.946899,
            "latitude": 24.103101
        },
        {
            "pokestop_id": "914b37e9375643208d9739f2510cb114.16",
            "longitude": 56.946843,
            "latitude": 24.108243
        },
        {
            "pokestop_id": "9b9dc19a0488454d8fac72747afb3f14.16",
            "longitude": 56.938777,
            "latitude": 24.060604
        },
        {
            "pokestop_id": "3187e527f4734fb9b7a86bf8fedc540d.16",
            "longitude": 56.928865,
            "latitude": 24.164047
        },
        {
            "pokestop_id": "3eaca02543d34f008e6af1a73acc5646.16",
            "longitude": 56.94179,
            "latitude": 24.068682
        },
        {
            "pokestop_id": "85af4c5e6420472e9c1b4e076cc2ffb7.16",
            "longitude": 56.946616,
            "latitude": 24.11364
        },
        {
            "pokestop_id": "f6a0cfb4c7184811b828557dca0b8aa1.16",
            "longitude": 56.94125,
            "latitude": 24.14121
        },
        {
            "pokestop_id": "7d1bfaa107c7476c9ee9c929176b7cea.16",
            "longitude": 56.946703,
            "latitude": 24.112776
        },
        {
            "pokestop_id": "727ff0d82aa44b4b8520a54b1a3a939a.16",
            "longitude": 56.934677,
            "latitude": 24.156063
        },
        {
            "pokestop_id": "536ea473ff8c4802950df34f4a3f3a73.16",
            "longitude": 56.93183,
            "latitude": 24.160526
        },
        {
            "pokestop_id": "c568bfc138fa42d99cd70f8ec5327349.11",
            "longitude": 56.942273,
            "latitude": 24.138232
        },
        {
            "pokestop_id": "cedb83a1e04f40888e6aabf0eb868270.16",
            "longitude": 56.946894,
            "latitude": 24.110566
        },
        {
            "pokestop_id": "c9018d43fe6445c8b7304153d0ca6d8d.16",
            "longitude": 56.94701,
            "latitude": 24.107986
        },
        {
            "pokestop_id": "7710aac287404ff0b45c393c8d202919.16",
            "longitude": 56.937821,
            "latitude": 24.150206
        },
        {
            "pokestop_id": "16abd678032348d1a3a00243ed3541cf.16",
            "longitude": 56.947079,
            "latitude": 24.105269
        },
        {
            "pokestop_id": "8f83c170f50845fc8471d6cee3180fdb.16",
            "longitude": 56.943955,
            "latitude": 24.132162
        },
        {
            "pokestop_id": "f5602b0c540d4f688599d9c29125d047.16",
            "longitude": 56.944085,
            "latitude": 24.076286
        },
        {
            "pokestop_id": "066515b5bb08419d9b8b9a188dfe15a0.16",
            "longitude": 56.911242,
            "latitude": 24.175233
        },
        {
            "pokestop_id": "e038025083c844d680c05c756f6654d9.16",
            "longitude": 56.935645,
            "latitude": 24.154832
        },
        {
            "pokestop_id": "b3dd4a65d5074ca8b86542d5e2c8ea15.16",
            "longitude": 56.910153,
            "latitude": 24.175421
        },
        {
            "pokestop_id": "dbe107cb60ba43d1a745be6a23ce5bbc.12",
            "longitude": 56.947207,
            "latitude": 24.10684
        },
        {
            "pokestop_id": "0fee13c8fa3b44afa6aec2382c5a7e25.16",
            "longitude": 56.947032,
            "latitude": 24.111424
        },
        {
            "pokestop_id": "927773562d1d4d05b58bb5407f3db0d1.16",
            "longitude": 56.943501,
            "latitude": 24.073552
        },
        {
            "pokestop_id": "4320374870454418ad858e4f5eac25ab.16",
            "longitude": 56.897802,
            "latitude": 24.172965
        },
        {
            "pokestop_id": "e799b032f43a432f9ef23f84c4be10d4.16",
            "longitude": 56.933596,
            "latitude": 24.158451
        },
        {
            "pokestop_id": "536d3e17c6a04d8ab83d26b5ca70a725.16",
            "longitude": 56.945494,
            "latitude": 24.125946
        },
        {
            "pokestop_id": "6371029595e8400d954bbbb33ff3b062.16",
            "longitude": 56.946896,
            "latitude": 24.116343
        },
        {
            "pokestop_id": "432f8d5bb17248f3bbf9442ce7754a35.16",
            "longitude": 56.947063,
            "latitude": 24.114773
        },
        {
            "pokestop_id": "dae64e5209a240619050c64d1e5cf63f.16",
            "longitude": 56.947348,
            "latitude": 24.110481
        },
        {
            "pokestop_id": "0f6e77e236d8477986474bbf2058818b.16",
            "longitude": 56.944407,
            "latitude": 24.132481
        },
        {
            "pokestop_id": "47a81646dcea4adb8e6667ca5a12f7f4.16",
            "longitude": 56.946663,
            "latitude": 24.120328
        },
        {
            "pokestop_id": "781c7d32b71e488590c87458bfca4a1e.16",
            "longitude": 56.935226,
            "latitude": 24.156783
        },
        {
            "pokestop_id": "3eba2bf19cc14b0d88b49a96adaafdc9.16",
            "longitude": 56.935692,
            "latitude": 24.156093
        },
        {
            "pokestop_id": "48afab5cd7384965a5df9d3a61bd9f7d.16",
            "longitude": 56.94407,
            "latitude": 24.134615
        },
        {
            "pokestop_id": "6d33d97793cb46ad889e21ce09f18a8b.16",
            "longitude": 56.947112,
            "latitude": 24.117454
        },
        {
            "pokestop_id": "0c1ee5a65a804ee5944a2a5a9f9489aa.16",
            "longitude": 56.947467,
            "latitude": 24.113658
        },
        {
            "pokestop_id": "868d32bfad3b454996dd0654ee87b9bc.11",
            "longitude": 56.947741,
            "latitude": 24.108569
        },
        {
            "pokestop_id": "345b48a32e4f4e8089296027f8cce752.11",
            "longitude": 56.881867,
            "latitude": 24.158203
        },
        {
            "pokestop_id": "e8ac49baeaa841fc96079586e7af7d14.12",
            "longitude": 56.947739,
            "latitude": 24.109977
        },
        {
            "pokestop_id": "ee145c2461b9486fa2d5fb19bf1bd952.16",
            "longitude": 56.945286,
            "latitude": 24.129925
        },
        {
            "pokestop_id": "5443d893d3584373a381b59af997d2d1.16",
            "longitude": 56.94428,
            "latitude": 24.134447
        },
        {
            "pokestop_id": "40de8b3921144e3ab2790e71073ecc17.16",
            "longitude": 56.947937,
            "latitude": 24.105324
        },
        {
            "pokestop_id": "6ae5135d35e4438ebf18f7f5d14d1de0.16",
            "longitude": 56.94795,
            "latitude": 24.104552
        },
        {
            "pokestop_id": "a0c871afb38c4aa1bfddf63b7d8592fb.16",
            "longitude": 56.947756,
            "latitude": 24.11173
        },
        {
            "pokestop_id": "e40beb1518124f078d1d599f0530b548.16",
            "longitude": 56.945847,
            "latitude": 24.080254
        },
        {
            "pokestop_id": "5ab9041f463545cfb4d581781f947cb2.16",
            "longitude": 56.948031,
            "latitude": 24.103449
        },
        {
            "pokestop_id": "27cd520104f04e728a29496d4e5e5246.16",
            "longitude": 56.9475,
            "latitude": 24.116264
        },
        {
            "pokestop_id": "3da30116e110426588ead31f93ada006.16",
            "longitude": 56.926115,
            "latitude": 24.169312
        },
        {
            "pokestop_id": "b02a01b0d62c4517b943d988399ed843.16",
            "longitude": 56.947994,
            "latitude": 24.109536
        },
        {
            "pokestop_id": "a41c0d9858914cfebac2ed9cc13be385.16",
            "longitude": 56.934284,
            "latitude": 24.159609
        },
        {
            "pokestop_id": "747385f3eb794ed2b591c73c203a8ab7.16",
            "longitude": 56.940684,
            "latitude": 24.061335
        },
        {
            "pokestop_id": "502e472b776d4a2181bb78308e0b3cb9.16",
            "longitude": 56.943126,
            "latitude": 24.139812
        },
        {
            "pokestop_id": "335cd0516757446e9f1a14b09d388703.16",
            "longitude": 56.948041,
            "latitude": 24.110832
        },
        {
            "pokestop_id": "7d45328a42d34d94834d6e41009d7aa7.16",
            "longitude": 56.945948,
            "latitude": 24.079488
        },
        {
            "pokestop_id": "1904c7b202e243b4b67759d80356cc7b.16",
            "longitude": 56.945,
            "latitude": 24.133353
        },
        {
            "pokestop_id": "3bdb434ffafb47a084b094997aa98dc3.16",
            "longitude": 56.943763,
            "latitude": 24.070034
        },
        {
            "pokestop_id": "903dc041b12b4f4fa16c75adb2be956f.16",
            "longitude": 56.94431,
            "latitude": 24.136265
        },
        {
            "pokestop_id": "e407b105a95347649b19045da0cfb134.16",
            "longitude": 56.943086,
            "latitude": 24.067658
        },
        {
            "pokestop_id": "0b5be7e954264775882936ba34e0edcc.12",
            "longitude": 56.948348,
            "latitude": 24.106536
        },
        {
            "pokestop_id": "4029dd1f8a72463ead57b6247f83233b.12",
            "longitude": 56.945696,
            "latitude": 24.07753
        },
        {
            "pokestop_id": "9e93d932252645f5a91e84522e7bba23.16",
            "longitude": 56.945955,
            "latitude": 24.129485
        },
        {
            "pokestop_id": "aa098ab1332442f4aa463b794c219850.11",
            "longitude": 56.937952,
            "latitude": 24.153665
        },
        {
            "pokestop_id": "20a72bf3c8b4441793f49d144f246fa4.16",
            "longitude": 56.945601,
            "latitude": 24.07692
        },
        {
            "pokestop_id": "1cbfd11b2e194ee1a0caf5ee78fe9dad.16",
            "longitude": 56.947714,
            "latitude": 24.118026
        },
        {
            "pokestop_id": "20d239f6eb1346ada81ba0b604d638bc.12",
            "longitude": 56.948446,
            "latitude": 24.105255
        },
        {
            "pokestop_id": "6d5de380821e49e09116120e8d519d0d.16",
            "longitude": 56.948486,
            "latitude": 24.10412
        },
        {
            "pokestop_id": "2232d3beb1cf4e908fcc07861534fadc.16",
            "longitude": 56.943327,
            "latitude": 24.140365
        },
        {
            "pokestop_id": "d299e94b905c446eb161d2289693f1fe.16",
            "longitude": 56.948475,
            "latitude": 24.108416
        },
        {
            "pokestop_id": "aed98376828c4f70939d708f295c38e2.16",
            "longitude": 56.947537,
            "latitude": 24.120673
        },
        {
            "pokestop_id": "26d7898a105640d0abe9ecdaf296d5b1.16",
            "longitude": 56.926322,
            "latitude": 24.170182
        },
        {
            "pokestop_id": "9c059a71d81649ff960e261c92c11eca.16",
            "longitude": 56.944637,
            "latitude": 24.13609
        },
        {
            "pokestop_id": "71a7a44064644ace9c92f193076ff179.16",
            "longitude": 56.941567,
            "latitude": 24.062273
        },
        {
            "pokestop_id": "a1c59160f06c4bea95e56d139e9473e4.16",
            "longitude": 56.943135,
            "latitude": 24.066735
        },
        {
            "pokestop_id": "9894798d8f3b4ba5a9941474e099ecda.16",
            "longitude": 56.941868,
            "latitude": 24.063016
        },
        {
            "pokestop_id": "1213422eefb640e0bc1a34538fcdb1bd.16",
            "longitude": 56.948438,
            "latitude": 24.112002
        },
        {
            "pokestop_id": "389ebaa009fd487b8915f6299b1fe58b.16",
            "longitude": 56.948515,
            "latitude": 24.110764
        },
        {
            "pokestop_id": "4bb892a166e042028d6d898c62407865.16",
            "longitude": 56.948689,
            "latitude": 24.105631
        },
        {
            "pokestop_id": "378ce91adb1542c5bef28d9f059cb72d.16",
            "longitude": 56.946113,
            "latitude": 24.130573
        },
        {
            "pokestop_id": "bb681fbdfa504d98b3d7c55618d7e5fe.12",
            "longitude": 56.948825,
            "latitude": 24.103757
        },
        {
            "pokestop_id": "d064c06ff5f741ec9e6f2244110adf08.16",
            "longitude": 56.948809,
            "latitude": 24.106769
        },
        {
            "pokestop_id": "457d19d1e2674607a5e4fa9663601f63.16",
            "longitude": 56.921858,
            "latitude": 24.174192
        },
        {
            "pokestop_id": "f34ea8f8b3bf4598b57def9623fdcedd.16",
            "longitude": 56.94832,
            "latitude": 24.116118
        },
        {
            "pokestop_id": "22d974a2ba084e3395133a358e29cb17.16",
            "longitude": 56.945509,
            "latitude": 24.133705
        },
        {
            "pokestop_id": "84b93237db994496bed4191057dc928f.16",
            "longitude": 56.945462,
            "latitude": 24.074046
        },
        {
            "pokestop_id": "9d61da6ecd7545ebb8405558db9a0b57.16",
            "longitude": 56.948689,
            "latitude": 24.112769
        },
        {
            "pokestop_id": "6929bb64796b4087807ca9e7a8ee9321.16",
            "longitude": 56.946179,
            "latitude": 24.131329
        },
        {
            "pokestop_id": "fc1a2696a6b84e8aa9e4384e1aa00cd3.16",
            "longitude": 56.947146,
            "latitude": 24.126416
        },
        {
            "pokestop_id": "dd48e447811548d68e1152e1afe0c9ec.16",
            "longitude": 56.944845,
            "latitude": 24.137023
        },
        {
            "pokestop_id": "c67227fd5caf4ee0818f3da9e42b44c8.16",
            "longitude": 56.935447,
            "latitude": 24.159851
        },
        {
            "pokestop_id": "4a3f245344334eb3808e9f3c558a0110.16",
            "longitude": 56.948776,
            "latitude": 24.113284
        },
        {
            "pokestop_id": "cee85a4c65034215a666d25f1d4c2694.16",
            "longitude": 56.935129,
            "latitude": 24.160509
        },
        {
            "pokestop_id": "f82a945a273e4c08ab8c94adcba057a6.12",
            "longitude": 56.94902,
            "latitude": 24.109579
        },
        {
            "pokestop_id": "fa853964b4fa49d5bef3b940f9c06532.16",
            "longitude": 56.949133,
            "latitude": 24.106473
        },
        {
            "pokestop_id": "d9c3cc237b414d63ab627daf73104321.16",
            "longitude": 56.94824,
            "latitude": 24.119885
        },
        {
            "pokestop_id": "ed5c34ff4358488bb0065e732d591d52.11",
            "longitude": 56.936015,
            "latitude": 24.159247
        },
        {
            "pokestop_id": "9fa64acd558f40899365367e8dcd23b4.16",
            "longitude": 56.949236,
            "latitude": 24.102922
        },
        {
            "pokestop_id": "2a8cefe7b6004a2090da704559386d77.16",
            "longitude": 56.93841,
            "latitude": 24.154987
        },
        {
            "pokestop_id": "8c7e6c9cbe8c4065ada4254c98bc123a.16",
            "longitude": 56.948527,
            "latitude": 24.118215
        },
        {
            "pokestop_id": "0844de67d8104f5f8648c6b52c741b1a.11",
            "longitude": 56.948684,
            "latitude": 24.116726
        },
        {
            "pokestop_id": "4346e90f4d904830b6ecb1df4ead7e76.16",
            "longitude": 56.946082,
            "latitude": 24.133256
        },
        {
            "pokestop_id": "8a07d3a94f7d47309701f3d87b0454a2.16",
            "longitude": 56.94557,
            "latitude": 24.072781
        },
        {
            "pokestop_id": "a89f792c2f0e47b2ab24c822c24dfc0d.16",
            "longitude": 56.949236,
            "latitude": 24.1087
        },
        {
            "pokestop_id": "da70cd9c24d44bc4a05eaea89ab0f75d.16",
            "longitude": 56.949095,
            "latitude": 24.112119
        },
        {
            "pokestop_id": "3b43b9aec83b49c8961ca4b7757ca3a2.16",
            "longitude": 56.934495,
            "latitude": 24.162074
        },
        {
            "pokestop_id": "3c68faee52f3412193eef736245a9300.16",
            "longitude": 56.94402,
            "latitude": 24.141268
        },
        {
            "pokestop_id": "3831160e42ec46748b34bb7c330aa518.16",
            "longitude": 56.921399,
            "latitude": 24.175522
        },
        {
            "pokestop_id": "79038f115c2843c79fe24588c2e04917.16",
            "longitude": 56.94823,
            "latitude": 24.12202
        },
        {
            "pokestop_id": "c7ef45ea96d348f3a9be329a0801ea98.16",
            "longitude": 56.941672,
            "latitude": 24.060056
        },
        {
            "pokestop_id": "98f7dbeba6be4b9bb1afc42cc687e487.16",
            "longitude": 56.942744,
            "latitude": 24.145305
        },
        {
            "pokestop_id": "0664e35bc703468785e6eeef12724964.16",
            "longitude": 56.949253,
            "latitude": 24.111074
        },
        {
            "pokestop_id": "a82e684c7da8463d9fb39e7317e3cc04.16",
            "longitude": 56.927703,
            "latitude": 24.170665
        },
        {
            "pokestop_id": "7d983c4387d8487299d1fcd625d205c7.16",
            "longitude": 56.945635,
            "latitude": 24.1359
        },
        {
            "pokestop_id": "4d37cf34c2214eef9d1fc8588bfea89c.11",
            "longitude": 56.937043,
            "latitude": 24.158208
        },
        {
            "pokestop_id": "f4c3a171adea44eea8abe0f85a8c50bf.16",
            "longitude": 56.944505,
            "latitude": 24.140158
        },
        {
            "pokestop_id": "7bfafc7e014f41829aab83b4c776e233.16",
            "longitude": 56.940959,
            "latitude": 24.150268
        },
        {
            "pokestop_id": "4fa389d7dfb44e6fafdba6a590abbba4.12",
            "longitude": 56.949493,
            "latitude": 24.108356
        },
        {
            "pokestop_id": "5c9a71a3528b44588f6f9e7dd50c2a0a.16",
            "longitude": 56.949549,
            "latitude": 24.107784
        },
        {
            "pokestop_id": "4e6eaee7bf8e4480b154078de2878594.16",
            "longitude": 56.92655,
            "latitude": 24.172043
        },
        {
            "pokestop_id": "c90941b9025a409d958926ae12086e4a.16",
            "longitude": 56.947446,
            "latitude": 24.079883
        },
        {
            "pokestop_id": "e0e4ce86bbdd485ea775abffb200ce34.11",
            "longitude": 56.907152,
            "latitude": 24.179861
        },
        {
            "pokestop_id": "9c94ea464a204e47a65dbb40e25bdc26.16",
            "longitude": 56.948177,
            "latitude": 24.123921
        },
        {
            "pokestop_id": "42e3c114942d44988cfd45c4cfb3b5ec.16",
            "longitude": 56.949638,
            "latitude": 24.106268
        },
        {
            "pokestop_id": "22d916f01ba94b85b19a8b95ee9a943e.16",
            "longitude": 56.938879,
            "latitude": 24.155214
        },
        {
            "pokestop_id": "6079c406d8da4d139287394802ea87b5.16",
            "longitude": 56.9497,
            "latitude": 24.103189
        },
        {
            "pokestop_id": "7d0f0292cd114322a9dadc2608fb905a.16",
            "longitude": 56.938261,
            "latitude": 24.156541
        },
        {
            "pokestop_id": "7c06304d247d4479b89b27da51c91129.12",
            "longitude": 56.94929,
            "latitude": 24.116191
        },
        {
            "pokestop_id": "eb1156d1ba824c7fbfc1893d55bdb6e9.12",
            "longitude": 56.949811,
            "latitude": 24.105632
        },
        {
            "pokestop_id": "36623a975b7645298a9a50dd34b91a16.12",
            "longitude": 56.949772,
            "latitude": 24.100088
        },
        {
            "pokestop_id": "7cc42b0306414fb88c05771d531f9956.16",
            "longitude": 56.949811,
            "latitude": 24.101522
        },
        {
            "pokestop_id": "7932c654443f4602b0e6c3ee93c72966.16",
            "longitude": 56.94976,
            "latitude": 24.108911
        },
        {
            "pokestop_id": "adf25f4784d04bc9b78eba7ab79c185e.16",
            "longitude": 56.933826,
            "latitude": 24.043971
        },
        {
            "pokestop_id": "fc7b277e1fc44962a7fe59a58d4935cb.11",
            "longitude": 56.94952,
            "latitude": 24.113935
        },
        {
            "pokestop_id": "e4a508a1349842b9a8413f004a9326eb.16",
            "longitude": 56.948755,
            "latitude": 24.086272
        },
        {
            "pokestop_id": "f6051474346e42e0a0894961dbc24fa0.16",
            "longitude": 56.944069,
            "latitude": 24.143155
        },
        {
            "pokestop_id": "5827fc311e8d4e36a9c512cedd092b4d.16",
            "longitude": 56.938525,
            "latitude": 24.156807
        },
        {
            "pokestop_id": "306e8741e8284be0926775374d9f0619.16",
            "longitude": 56.949859,
            "latitude": 24.110792
        },
        {
            "pokestop_id": "11ec89ebf2c6461bb18c2a674fcd09b3.16",
            "longitude": 56.948935,
            "latitude": 24.121484
        },
        {
            "pokestop_id": "061f1ba760004e7a99cbe4451b08e9c7.16",
            "longitude": 56.950023,
            "latitude": 24.102313
        },
        {
            "pokestop_id": "7fe1a37ca47b4124871fba6d2e66b18b.16",
            "longitude": 56.948323,
            "latitude": 24.125888
        },
        {
            "pokestop_id": "b5b7e548bbaf409f87a7580717eee55a.16",
            "longitude": 56.94708,
            "latitude": 24.075706
        },
        {
            "pokestop_id": "419cbdfe5b6147c6a6c97006316d1789.12",
            "longitude": 56.94951,
            "latitude": 24.091573
        },
        {
            "pokestop_id": "dd5c687837fd46d497816492be060e4d.16",
            "longitude": 56.945769,
            "latitude": 24.137973
        },
        {
            "pokestop_id": "71c7f3215a5448da9775b8ddd0e88898.16",
            "longitude": 56.948165,
            "latitude": 24.127107
        },
        {
            "pokestop_id": "a6af043874c645bf8c6cd78c8c4f4180.16",
            "longitude": 56.949689,
            "latitude": 24.114971
        },
        {
            "pokestop_id": "4c2bca94a11a49f599f8d953c3ceca51.12",
            "longitude": 56.950083,
            "latitude": 24.108403
        },
        {
            "pokestop_id": "141e4f9e3a2d47e9900988ec21b8765e.16",
            "longitude": 56.950162,
            "latitude": 24.105867
        },
        {
            "pokestop_id": "eda14902636b4ec4b1ced0aee2e10d0d.12",
            "longitude": 56.950144,
            "latitude": 24.100544
        },
        {
            "pokestop_id": "cfa831afa25f40a0b0a3b887e06e2efb.16",
            "longitude": 56.946217,
            "latitude": 24.071431
        },
        {
            "pokestop_id": "1e934a67d5b641fc9aa9136b6216ee82.16",
            "longitude": 56.95002,
            "latitude": 24.111024
        },
        {
            "pokestop_id": "056d64f9b8514a32bd771329844fadc7.16",
            "longitude": 56.949693,
            "latitude": 24.116007
        },
        {
            "pokestop_id": "c7b89ff207ce4c88acf25c85228518e8.16",
            "longitude": 56.948973,
            "latitude": 24.1226
        },
        {
            "pokestop_id": "5df46f6d3e854b26b14a01ea07216b3d.16",
            "longitude": 56.949611,
            "latitude": 24.117431
        },
        {
            "pokestop_id": "2431de00e0e94745b1c7fe78707d374e.16",
            "longitude": 56.948087,
            "latitude": 24.128586
        },
        {
            "pokestop_id": "1008a9fec590466baff0e87ecad70863.11",
            "longitude": 56.94605,
            "latitude": 24.070445
        },
        {
            "pokestop_id": "78010be01f1c4677a494a5b95855729c.16",
            "longitude": 56.949658,
            "latitude": 24.090863
        },
        {
            "pokestop_id": "4519b00a439045d6b86f6d958816ce48.16",
            "longitude": 56.949904,
            "latitude": 24.114484
        },
        {
            "pokestop_id": "76d9b04afcc44b0ab14e54b1a5535914.16",
            "longitude": 56.941888,
            "latitude": 24.057842
        },
        {
            "pokestop_id": "12724192df4e4bc0bfb1f8da8f1f6593.16",
            "longitude": 56.936059,
            "latitude": 24.16197
        },
        {
            "pokestop_id": "7a2f2801d8134f5494ce198d2092f5b8.16",
            "longitude": 56.949615,
            "latitude": 24.118268
        },
        {
            "pokestop_id": "2d02bef35e054adfa666b16ff4303841.16",
            "longitude": 56.950081,
            "latitude": 24.112965
        },